lon,lat,name,type
9.205694,45.47415,People's Place,cafe
9.189704,45.479909,Poldo,cafe
9.189985,45.483354,Unknown name,bar
9.18426,45.478598,Volta Street,restaurant
9.184083,45.477658,Oracle,restaurant
9.184263,45.478211,Bomaki,restaurant
9.159181,45.467154,Lo Gnomo Gelato,ice cream
9.159883,45.467271,Il Panino Giusto,fast food
9.179615,45.453149,Panino Giusto,fast food
9.189285,45.478667,Daniel,restaurant
9.175291,45.452057,Officina 12,restaurant
9.201232,45.480214,Gelsomina,cafe
9.202911,45.478927,Ristorante Nara,restaurant
9.186068,45.481255,Signorvino,restaurant
9.188403,45.464361,McDonald's,fast food
9.188395,45.464289,Unknown name,ice cream
9.184155,45.477967,Rossopomodoro,restaurant
9.184828,45.477828,Princi,cafe
9.203163,45.47887,Pucatè - Bubble Tea,cafe
9.190178,45.450723,Taxi Blues,bar
9.189997,45.451101,Il Pizzino,restaurant
9.187334,45.451044,Taxi Blues,bar
9.1818,45.461757,Unknown name,cafe
9.182454,45.458997,Yguana,bar
9.180439,45.453134,McDonald's,fast food
9.182606,45.467735,Unknown name,fast food
9.181903,45.467748,Unknown name,cafe
9.190272,45.464924,Motta,cafe
9.181771,45.481754,Circolo ex Combattenti e Reduci,bar
9.186856,45.45167,Bar Tiffany,cafe
9.190178,45.450821,Reef,bar
9.190617,45.45074,Bar Bocconi,bar
9.189571,45.450981,Lino's Coffe,cafe
9.171476,45.459836,Lleva Taps,restaurant
9.187457,45.451535,Venti 136,cafe
9.191894,45.450843,Amici Miei,restaurant
9.191047,45.450815,Bocconi Giusti,fast food
9.186998,45.458889,Dal Bolognese,restaurant
9.192401,45.459279,Bar One,bar
9.173436,45.456438,Da Willy,restaurant
9.187516,45.466492,Café Victoria,cafe
9.188954,45.466341,Grom,ice cream
9.167027,45.471712,La Bottega dell'Antico Gusto,cafe
9.168679,45.47114,Unknown name,cafe
9.171742,45.476482,Unknown name,restaurant
9.171696,45.476534,Deseo,bar
9.17046,45.476862,Bottega Ghiotta,restaurant
9.172689,45.477163,Il Tunnel,restaurant
9.170728,45.477287,Jazz Cafè,bar
9.172488,45.477644,Pop Up,restaurant
9.172649,45.476809,Okonomiyaki,restaurant
9.174641,45.477308,Pils Pub,bar
9.174547,45.477232,Carpe Diem Bar,cafe
9.173164,45.476364,Living,bar
9.17402,45.477797,Pandemus,cafe
9.169908,45.479745,Unknown name,cafe
9.170299,45.477648,Poku Poke Place,restaurant
9.175385,45.477814,Unknown name,bar
9.172065,45.468565,Osteria della Via Appia,restaurant
9.185678,45.465948,Granaio,cafe
9.174094,45.467678,Chocolat,ice cream
9.177677,45.451319,Burgerama,restaurant
9.176518,45.467512,La Rocchetta,bar
9.192744,45.47048,il Salumaio,restaurant
9.185058,45.482711,Gran Caffè Bonnet,cafe
9.186103,45.480957,Princi,cafe
9.177461,45.459584,Pummà Milano,restaurant
9.170854,45.453074,Empire,cafe
9.189847,45.464932,Camparino in Galleria,bar
9.190166,45.465257,Biffi,cafe
9.1786,45.472273,Cafe' De Paris Piccaluga,bar
9.190565,45.465721,Ristorante Savini,restaurant
9.194138,45.465665,Charleston,restaurant
9.192221,45.472813,Arcadia Caffe Self Service,cafe
9.185011,45.469609,Gelateria Toldo,ice cream
9.184787,45.469002,Good Fellas,cafe
9.18574,45.472075,Hosteria della musica,restaurant
9.180773,45.453302,California Bakery,restaurant
9.1715,45.455612,Langosteria Bistrot,restaurant
9.181718,45.45603,Walden Milano,cafe
9.202849,45.478364,Caffè Milani,cafe
9.187053,45.467773,Bar Dei Bossi,cafe
9.188992,45.466388,La Piadineria,fast food
9.180189,45.478042,Ristorante Nuova Arena,restaurant
9.177531,45.473553,Bar Bianco,bar
9.182168,45.459113,Cheese,bar
9.174564,45.467931,Temakinho,bar
9.182179,45.459695,20 - Twenty,bar
9.182812,45.459432,La Hora Feliz,bar
9.169022,45.453828,Osteria del binari,restaurant
9.194869,45.461559,Arnold Coffee,cafe
9.194164,45.460852,Campus Café,cafe
9.194971,45.461521,Zen Zero Caffè,cafe
9.16477,45.467309,Grom,ice cream
9.199053,45.463305,Taveggia,cafe
9.197121,45.463317,Unknown name,cafe
9.181022,45.459504,Zero Due,restaurant
9.176049,45.466139,12oz Coffee Joint,bar
9.176276,45.466499,Cantina Carducci,restaurant
9.173832,45.462396,Caffè Carducci,cafe
9.173541,45.462489,Queen's Bar Tabacchi,cafe
9.162472,45.466017,A Tavola,cafe
9.176089,45.468519,Marinoni,cafe
9.159414,45.463251,Antica Trattoria Salutati,restaurant
9.160726,45.464065,Cantun,restaurant
9.196319,45.463982,Andrew's bar,cafe
9.197122,45.463687,Lo Sharman,cafe
9.173335,45.462319,Osteria Carbonaia mare,restaurant
9.187438,45.472335,Bar Brera,cafe
9.187211,45.472945,Il Pontaccio,restaurant
9.187536,45.472605,Jamaica,cafe
9.187425,45.472518,New Art ristorante e pizzeria,restaurant
9.187541,45.472619,Ponte di Brera,restaurant
9.186765,45.469002,Bar Prima Donna,cafe
9.185797,45.469062,Caffè vecchia Brera,cafe
9.188079,45.4691,Il Coriandolo,restaurant
9.184979,45.469671,Salsamenteria di Parma,restaurant
9.187879,45.46994,Farage,cafe
9.188174,45.469106,il BIRoCC,cafe
9.194787,45.472875,Milanese Cafè,restaurant
9.183307,45.452013,Riva Reno Gelato,ice cream
9.189179,45.467153,Il Marchesino,restaurant
9.191324,45.465791,Cioccolati Italiani,ice cream
9.177227,45.457855,Le Biciclette,restaurant
9.186728,45.463992,Passerini,cafe
9.174268,45.451464,Kawa,restaurant
9.195155,45.47339,Tempio Caffè,cafe
9.191661,45.465714,Pizzeria Di Gennaro,restaurant
9.198356,45.465629,Terrazza 12,cafe
9.199052,45.465946,Pasticceria Bastianello,cafe
9.198809,45.465951,Panino Giusto,restaurant
9.178085,45.45929,Lato Mare,fast food
9.181433,45.45606,Bar Rattazzo,cafe
9.203349,45.475681,Dolly Bar,bar
9.194195,45.475569,Panini Durini,cafe
9.189474,45.4625,Bottega Ghiotta,restaurant
9.176314,45.465534,Osteria La Carbonella,restaurant
9.190528,45.462007,Crocetta,restaurant
9.159811,45.466064,Shut Up! Pizza,restaurant
9.1902,45.46189,Mannini,cafe
9.176115,45.46553,Actors' Studio Cafe,cafe
9.199815,45.479692,Gran Bar Tunisia,bar
9.187701,45.473275,Fashion Café,cafe
9.188411,45.46407,Gran Caffè Visconteo,cafe
9.188422,45.464616,Bar Duomo,cafe
9.194378,45.464782,Pasticceria Fratelli Freni,bar
9.171075,45.476389,Old Wild West,restaurant
9.189291,45.457431,Al Mercato,restaurant
9.200076,45.478485,Piazza Repubblica,restaurant
9.172942,45.458893,C'è Lenti,cafe
9.173872,45.457004,La Playa di Taormina,restaurant
9.172862,45.457412,Vino bucatino guanciale pecorino,restaurant
9.174499,45.45635,Botega Cafè Cacao,cafe
9.207149,45.464183,Lab Milano,bar
9.193622,45.464608,Vanilla Gelati Italiani,cafe
9.195582,45.456367,Bar della Crocetta,cafe
9.180912,45.451963,Caffè Cherubini,cafe
9.181158,45.451955,Tvoì Vuòla,restaurant
9.18155,45.460182,Five Guys,fast food
9.182461,45.459616,Le Scimmiette,restaurant
9.184678,45.458642,Unknown name,cafe
9.204954,45.462993,La Gavetta,restaurant
9.172726,45.468407,Sugar Milano,cafe
9.191431,45.45104,Exotic,bar
9.205848,45.476313,One Love Bar,cafe
9.178302,45.479051,La cantina del Giannone,restaurant
9.201236,45.470971,Bar Nobile,cafe
9.200709,45.470476,Caffè della terra,cafe
9.194208,45.462307,Margy,fast food
9.181117,45.457514,Luca's Bar,bar
9.191571,45.48119,All'Opera,restaurant
9.185437,45.471459,Di Viole,cafe
9.190396,45.466303,Papà Francesco,restaurant
9.199201,45.46285,Mauro,restaurant
9.186413,45.480224,Vasinikò,restaurant
9.184031,45.465218,Dito Divino,bar
9.181017,45.457073,Panino LAB Colonne,fast food
9.191759,45.466124,Asiatico,fast food
9.186888,45.466183,Le Banque,restaurant
9.171765,45.457811,Ristorante X & C,restaurant
9.177902,45.450367,Antica Osteria Briosca,restaurant
9.178377,45.45187,Ciccio Pasticcio,restaurant
9.177937,45.453119,Caffè Viarenna,restaurant
9.177637,45.453112,Panino Giusto,fast food
9.177181,45.453319,Jin Zan,restaurant
9.177015,45.453435,Garam Masala,restaurant
9.181934,45.452916,Cacio e Pepe,restaurant
9.182696,45.452867,Shiva,restaurant
9.175451,45.451735,Locandina dei Navigli,restaurant
9.176596,45.45199,Spritz,bar
9.168641,45.456707,Capuano's,restaurant
9.175328,45.451702,Momo,bar
9.175218,45.451681,Ponte Rosso Trattoria,restaurant
9.176971,45.452045,Pizzeria Tradzionale Trattoria,restaurant
9.199183,45.465641,Caffè Borgogna,cafe
9.183824,45.482542,Cost,restaurant
9.184553,45.482648,Caffè su e giù,cafe
9.181926,45.483877,Enoteca Huaxia,restaurant
9.182693,45.483767,Dreams Cafè,cafe
9.184976,45.482557,Il Gusto della Nebbia,restaurant
9.172621,45.456693,Bar al 57,cafe
9.170352,45.458014,Spontini,restaurant
9.172331,45.456836,Acero,restaurant
9.180993,45.459309,Tasca,restaurant
9.180855,45.456452,Creperia Le colonne,cafe
9.181363,45.456167,Unknown name,bar
9.18117,45.45743,Grom,ice cream
9.181432,45.457757,Old Wild West,restaurant
9.202606,45.455366,Latteria 78,restaurant
9.181173,45.465397,La Colonna,restaurant
9.182883,45.465874,Meravigli Caffè,cafe
9.181047,45.465479,Dalla Pagnotta,restaurant
9.18716,45.463922,Carlo e Camilla in Duomo,restaurant
9.180808,45.4577,Rugantino,restaurant
9.18035,45.465764,AnticCùccá,cafe
9.174682,45.451868,el Brellìn ristorante,restaurant
9.18713,45.463668,Ottimo Massimo,cafe
9.191904,45.466039,Juice Bar,cafe
9.192085,45.466189,Ravizza,cafe
9.19197,45.466079,GB Bar,cafe
9.190242,45.467371,Voce Aimo e Nadia,restaurant
9.189289,45.475449,13 Giugno di Brera,restaurant
9.187564,45.482319,Rocking Horse,restaurant
9.186481,45.482674,Virigin Active Cafè,cafe
9.184865,45.48276,Shiki,restaurant
9.184332,45.465824,Galleria Meravigli Bistrot,cafe
9.187543,45.482247,Just,cafe
9.18722,45.482181,Pitbull,bar
9.192957,45.462198,Unknown name,cafe
9.193912,45.462323,Flash,restaurant
9.194469,45.462979,Gran Caffè Cimmino,cafe
9.194801,45.462625,Pokerbar,cafe
9.184501,45.466346,Caffé Sforzesco,cafe
9.17798,45.481653,L'incontro,cafe
9.196295,45.455733,Top del gelato,ice cream
9.188624,45.462938,Bar Mercurio,cafe
9.191189,45.465667,Spontini,fast food
9.191068,45.465668,Gino's,restaurant
9.19131,45.46849,Caffé dell'Opera,cafe
9.16688,45.455095,Pizzeria Gino Sorbillo,restaurant
9.16863,45.455626,Langosteria 10,restaurant
9.198605,45.453323,Unknown name,cafe
9.193977,45.464692,Mozzarella e basilico,restaurant
9.193817,45.46466,Replay,restaurant
9.191422,45.465901,Musubi,fast food
9.177552,45.450782,PS Cocktail & Beer,bar
9.175889,45.465705,Panini Durini,fast food
9.183973,45.463569,Cinque Vie,restaurant
9.18655,45.463876,Caffè Spadari,cafe
9.187267,45.484191,Brico Cafè,cafe
9.196867,45.482093,Ristorante La Piedra del Sol,restaurant
9.195378,45.466266,Salsamenteria di Parma,restaurant
9.18589,45.479439,Lato G,ice cream
9.185603,45.479102,La Piadineria,fast food
9.185828,45.478849,Alexander,restaurant
9.185573,45.479068,Max Café,cafe
9.185779,45.479308,Osteria Brunello,restaurant
9.185156,45.477702,Burgetr Italy,restaurant
9.181044,45.480605,Bar Ristorante Caffetteria Montello,cafe
9.18636,45.480051,Metro Cubo,cafe
9.186171,45.479794,Panino Giusto,fast food
9.186022,45.48081,O' Peperino e Milano,restaurant
9.182606,45.480659,Zushi,restaurant
9.185718,45.48086,Unknown name,restaurant
9.197758,45.475984,Il Chiosco di Pippo,cafe
9.186981,45.472269,L'Osteria di Brera,restaurant
9.186886,45.472245,Ristorante Nabucco,restaurant
9.186083,45.471784,Rosso di Brera,restaurant
9.185506,45.471719,Taverna del Borgo Antico,restaurant
9.189816,45.463548,Bistot Duomo,cafe
9.189441,45.456551,Bukowski Pub,bar
9.187529,45.455645,Good Morning Caffè,cafe
9.186415,45.460667,Bar Principe,bar
9.186407,45.460532,Alla collina pistoiese,restaurant
9.187918,45.458238,My Chef Briciole Bar,bar
9.18751,45.458277,Nicol,bar
9.187531,45.458076,Bio Pizza,restaurant
9.187468,45.457625,.jpeg,restaurant
9.187309,45.456151,Papas and Beer,restaurant
9.187323,45.456696,Caffè Italia,restaurant
9.186997,45.481477,California Bakery,restaurant
9.188413,45.46451,7's Gio',fast food
9.189985,45.483693,RED la Feltrinelli,cafe
9.184943,45.478392,Davai,bar
9.184626,45.478449,Osteria La Vecchia Lira,restaurant
9.184738,45.478424,Pandaneus,cafe
9.18436,45.478863,Verger,restaurant
9.183592,45.462983,Ristorante Santa Marta,restaurant
9.183676,45.46293,Trattoria Milanese,restaurant
9.194915,45.483028,Caffè del Principe,cafe
9.195113,45.480118,Tre Cristi,restaurant
9.192119,45.477215,Izakaya,restaurant
9.183721,45.468575,Unknown name,cafe
9.184189,45.471654,Obicà,restaurant
9.184506,45.471737,Torre di Pisa,restaurant
9.169663,45.458562,Unknown name,cafe
9.174087,45.462308,California Bakery,restaurant
9.172988,45.468213,Da Cenciaioli,restaurant
9.187183,45.464622,ILK,fast food
9.182565,45.459126,Gaina café,bar
9.18479,45.471563,Ristorante Toscano al Pozzo,restaurant
9.180745,45.453052,The Bagel Factory,restaurant
9.198976,45.454936,Pizzeria Il Faraone,restaurant
9.202965,45.474909,Tropical Island,bar
9.165276,45.46709,Kota-Radja,restaurant
9.182329,45.48522,Grani & Braci,restaurant
9.180214,45.453389,Home,restaurant
9.179345,45.453277,Mudra,restaurant
9.179228,45.453153,Trita,fast food
9.181012,45.457195,Farini,fast food
9.197771,45.469997,Quest'Osteria 這間冰室,fast food
9.191165,45.483016,Grom,ice cream
9.202043,45.465808,Unknown name,cafe
9.18698,45.484595,Meneghino,cafe
9.183208,45.475552,al  Matarel,restaurant
9.195257,45.473721,BLAH Bar,restaurant
9.204688,45.475335,McDonald's,fast food
9.159596,45.470787,Brand,restaurant
9.170535,45.480817,Ciripizza,restaurant
9.179327,45.451839,Kaneda,restaurant
9.18977,45.481998,Music Viga Bar,bar
9.188377,45.481973,AD Sushi and More,restaurant
9.187523,45.482139,Pixel Bar,bar
9.18751,45.48207,Ristorante Pizzeria All'Isola,restaurant
9.187133,45.481948,Caffè Novecento,cafe
9.187011,45.481528,Dom Cafè,bar
9.187468,45.48189,10 Corso Como,bar
9.187355,45.481558,Alla Cucina delle Langhe,restaurant
9.187294,45.481033,Blenderino,bar
9.187277,45.481275,Ganas,restaurant
9.18733,45.481486,Maf Bar,bar
9.187392,45.481673,Pizzeria di Porta Garibaldi,restaurant
9.187988,45.480978,Miami Lounge Bar,bar
9.18786,45.48098,Sakura,restaurant
9.188129,45.480973,The Prime,restaurant
9.180495,45.452825,LeTrottoir,bar
9.173471,45.451656,Alzaia 26,restaurant
9.17265,45.451511,Bella Riva,restaurant
9.164718,45.466319,Starbucks,cafe
9.159764,45.466679,Torrefazione Vercelli,cafe
9.175395,45.452101,Al Coniglio Bianco,restaurant
9.173997,45.451768,L'Altro Luca e Andrea,restaurant
9.175921,45.452144,Posto di Conversazione,restaurant
9.176427,45.452263,Premiata Pizzeria di Vincenzo,restaurant
9.17683,45.452026,Sofa Café,bar
9.175513,45.451745,Straripa Bar,bar
9.176119,45.451874,Twist on Classic,bar
9.173327,45.455516,Al Porto,restaurant
9.182533,45.46759,Istanbul Ayasofya,fast food
9.178913,45.467857,Majestic,cafe
9.180043,45.467754,Caffè Teatro Foro Buonaparte,cafe
9.18098,45.467893,Gran Caffè al Foro,cafe
9.1816,45.468159,Van Bol & Feste,ice cream
9.185382,45.469462,Wasabi,restaurant
9.185153,45.470063,Caffè del Carmine,cafe
9.184982,45.471593,Noor,bar
9.184013,45.47383,Libreria del Mondo Offeso,fast food
9.184054,45.476722,California Bakery,fast food
9.183427,45.473592,Osteria del Batti Batti,restaurant
9.185529,45.471932,Ristorante Il Cestino,restaurant
9.184255,45.476456,Jupito Caffè,cafe
9.161232,45.464216,Green Bar,cafe
9.181645,45.466982,Brasserie Da Lorenzo,cafe
9.199413,45.455977,Gradisca Pub,restaurant
9.172106,45.468872,Chiù,restaurant
9.17132,45.46948,Cecco,restaurant
9.184079,45.481788,Antica Trattoria della Pesa,restaurant
9.186226,45.482818,La Griglia di Varrone,restaurant
9.185277,45.46868,Giusto Gusto,cafe
9.184691,45.466205,Venchi,ice cream
9.183312,45.467266,Caffè Dante,cafe
9.183227,45.467655,McDonald's,fast food
9.183116,45.467739,Café de Ville,cafe
9.196859,45.466984,Top Undici,cafe
9.170283,45.453025,Gelateria Porta Genova,ice cream
9.170253,45.453792,Chicchi e Bacche,cafe
9.19841,45.46564,Rossopomodoro,restaurant
9.198453,45.465668,Starbucks,cafe
9.187436,45.463206,Granaio Caffè e cucina,restaurant
9.191264,45.465244,Straf Bar,bar
9.187357,45.464205,Panini Durini,cafe
9.187279,45.46427,Frankly Bubble Tea & Coffee,cafe
9.181269,45.467407,Quattro Mori,restaurant
9.181472,45.468355,Farinella,restaurant
9.191578,45.468869,Manzoni Romantic Cafè,restaurant
9.192489,45.470407,Emporio Armani Cafè,cafe
9.196934,45.466045,Five Guys,fast food
9.197141,45.464769,Unknown name,cafe
9.197414,45.465549,Passarella Café,cafe
9.193507,45.464781,Bar Madonnina,cafe
9.195388,45.465305,Le tre gazzelle,cafe
9.193009,45.464553,Unknown name,cafe
9.186975,45.463806,Green Station,restaurant
9.186834,45.463686,Ciacco,ice cream
9.195876,45.465858,Ristorante e Bistrot San Carlo,restaurant
9.185365,45.471913,Petrus,restaurant
9.199203,45.466875,Max Bar,cafe
9.198725,45.466697,Caffè Rivoli,cafe
9.187827,45.464767,Caffè Mercanti,cafe
9.196164,45.465927,Antica cremeria San Paolo al corso,cafe
9.197618,45.46365,Bar Durini,cafe
9.198342,45.465574,Bar Erri,cafe
9.197938,45.463541,Bar SI,cafe
9.198391,45.463441,L'albero del pepe,restaurant
9.198341,45.465467,Panini Durini,cafe
9.198344,45.465372,Ristorante Cocopazzo,restaurant
9.198028,45.464245,Unknown name,cafe
9.183359,45.467556,Fresco,restaurant
9.184588,45.46661,Bar gelateria La voglia,ice cream
9.183573,45.461101,Cioccolati Italiani,ice cream
9.182993,45.460814,Alice pizza,fast food
9.180517,45.460061,Fruteiro,cafe
9.183059,45.471972,Fruteiro,cafe
9.184866,45.46102,12oz coffee,cafe
9.186681,45.463039,Bar Beltrade,cafe
9.186319,45.462866,Exki,fast food
9.186267,45.462909,Magnum,cafe
9.186738,45.462999,Spaccio agricolo con degustazione,restaurant
9.184659,45.460922,Eatme&Go,cafe
9.18187,45.460651,McDonald's,fast food
9.183493,45.460665,Hawaii Poke,restaurant
9.188683,45.466385,Bar Freetime,cafe
9.193047,45.464516,Unknown name,cafe
9.192819,45.46279,Santa Tecla,bar
9.175332,45.465677,Gelato libre,ice cream
9.181165,45.465758,Krem,ice cream
9.181908,45.465672,Meravigli 13,cafe
9.206108,45.475095,Unknown name,cafe
9.190851,45.465211,Fresco & Cimmino,restaurant
9.181846,45.483618,Da Martino 1950,restaurant
9.181277,45.483936,Myke My Kitchen,restaurant
9.18176,45.483019,Tang Court Barbecue,restaurant
9.181565,45.483575,Da Franco,restaurant
9.181792,45.483221,Jasmin Orange,restaurant
9.18292,45.483381,Mics,restaurant
9.18177,45.483128,Mitsui,restaurant
9.18214,45.483898,Mythos,restaurant
9.181878,45.483715,You Yi,restaurant
9.182366,45.483896,Pizzeria La Maria,fast food
9.180311,45.483517,Ceresio 7,bar
9.183606,45.479466,Pescetto,restaurant
9.200426,45.466905,Alchimie,ice cream
9.187167,45.463412,Peck,cafe
9.188733,45.48067,Curò Ristorante,restaurant
9.18989,45.481351,Basic Cafè,cafe
9.18896,45.480908,Sciatt a Porter,restaurant
9.192686,45.480771,La Filetteria Italiana,restaurant
9.192739,45.481024,Volemose bene,restaurant
9.193499,45.480707,Marco Polo Bar,cafe
9.184276,45.466523,Rom'antica,fast food
9.183066,45.474021,Dolcevita,ice cream
9.189639,45.482919,Bar Atlantic,cafe
9.199785,45.464133,El café di Milano,cafe
9.172837,45.483075,Pupurry,restaurant
9.196575,45.46373,Bianchi Cafè & Cycles,cafe
9.191409,45.465583,McDonald's,fast food
9.183826,45.473775,Tramé,fast food
9.184396,45.471115,Riva Reno,ice cream
9.186729,45.472064,Sushi-B,restaurant
9.181053,45.468557,Serendipico,restaurant
9.198448,45.46835,Bar Martini,cafe
9.184775,45.48221,Pescaria,fast food
9.180824,45.461497,Hats Off,cafe
9.180841,45.456033,Pretto Gelato Arte Italiana,ice cream
9.183327,45.461108,Nerino Dieci Trattoria,restaurant
9.197215,45.4554,Pizza AM,restaurant
9.197394,45.481616,Hosteria La Cadrega,restaurant
9.199014,45.481132,Metropolis,bar
9.196737,45.481741,Unknown name,cafe
9.194426,45.481802,Ristorante Berton,restaurant
9.179929,45.454207,Unknown name,cafe
9.180273,45.453629,Unknown name,cafe
9.178844,45.455126,Unknown name,cafe
9.192144,45.465389,Manuelina,cafe
9.197173,45.455063,Palo Alto Café,bar
9.159978,45.471048,Le Magie,cafe
9.190159,45.466101,Il salotto di Milano,cafe
9.190644,45.465513,La Locanda del Gatto Rosso,restaurant
9.177902,45.468227,Sloan Square,bar
9.19461,45.469761,Il Salumaio di Montenapoleone,restaurant
9.188599,45.478992,Zaza Ramen,restaurant
9.18779,45.479973,Full 80,cafe
9.188096,45.478348,Marsaladue,cafe
9.188603,45.479936,Bar White,cafe
9.188318,45.478092,Ristorante Solferino,restaurant
9.188002,45.478158,La Briciola,restaurant
9.18861,45.479542,Meatbar,restaurant
9.187933,45.478392,La briciola mare,restaurant
9.188674,45.479676,Universo Vegano,fast food
9.188192,45.478451,Wasabi,restaurant
9.17647,45.451967,I Mas!,bar
9.176388,45.451943,Manhattan,bar
9.179921,45.453164,Ricette tricolori,restaurant
9.193336,45.480228,Ristorante La bisBistecca,restaurant
9.195137,45.475806,Kisen,restaurant
9.194926,45.47563,Unknown name,restaurant
9.202825,45.462134,Bar Garden,cafe
9.192752,45.465528,Ristorante Agnello,restaurant
9.193374,45.465037,Royal Restaurant,restaurant
9.191052,45.465913,Unknown name,restaurant
9.182693,45.478281,Bar Granny,cafe
9.182611,45.477946,Coffee Palace,cafe
9.17239,45.476506,Bon Thon Bistrot,cafe
9.171943,45.47643,Taglialà,fast food
9.181255,45.466486,Andry Bistrot,restaurant
9.18113,45.46673,Petit Bistrot,cafe
9.183331,45.466462,Riso e Latte,restaurant
9.194534,45.461257,Arcibaldo Bar,cafe
9.194024,45.46208,News cafè,cafe
9.194457,45.461332,Unknown name,ice cream
9.174628,45.451582,I Pesciolini,restaurant
9.174691,45.481921,Yanyu,restaurant
9.189981,45.45745,ABBA,cafe
9.189677,45.457399,Noir Cafè,cafe
9.205528,45.476835,Viveca,restaurant
9.20543,45.476729,Mosobna,restaurant
9.20503,45.476854,Bar Hiwinet,cafe
9.205611,45.47673,Caffè Venezia,cafe
9.181566,45.459139,Chipstar Amsterdam,fast food
9.170126,45.453803,Amor di patata,fast food
9.183602,45.455578,Migjorn Cafè,cafe
9.18096,45.456853,Burger Wave,fast food
9.177948,45.465586,Verdi's,restaurant
9.177548,45.465821,Happy Bar,bar
9.205217,45.475789,Antica Focacceria San Francesco,restaurant
9.169959,45.477204,Bada Boom,bar
9.170244,45.477008,Bar Marilù,cafe
9.168327,45.478182,Caffè' Sempione,cafe
9.167575,45.478739,Caffè in diretta,cafe
9.168066,45.478044,Massena,restaurant
9.176327,45.467738,Pasticceria Villa,cafe
9.18532,45.468455,Bar Miró,restaurant
9.204812,45.475278,Maruzella,restaurant
9.192291,45.480446,I Tesori del Mare,restaurant
9.188042,45.482144,Boombastic Cafè,bar
9.191479,45.480558,Il Liberty,restaurant
9.188551,45.478351,Swinging Cafe,cafe
9.17041,45.453109,Amsterdam Chips,fast food
9.173047,45.452909,Fior di stecco,ice cream
9.17264,45.452954,LatteNeve gelateria tradizionale,ice cream
9.175713,45.459864,NaturaSì cucina bio,restaurant
9.195217,45.477488,Moye',restaurant
9.198274,45.466306,Café GinRosa,cafe
9.167432,45.460608,Bar Tabaccheria Filangieri,cafe
9.196647,45.479931,Acanto,restaurant
9.198606,45.477842,Arigatò,restaurant
9.199297,45.478341,Chini,restaurant
9.194956,45.4795,Clotilde Bistrot,restaurant
9.198996,45.477678,La Tana del Lupo,restaurant
9.196121,45.47931,STK Milan,restaurant
9.188045,45.460107,Sei.it,cafe
9.175721,45.460251,Vento di Sardegna,restaurant
9.196186,45.472682,Swiss Corner,restaurant
9.180583,45.456049,Kobe,restaurant
9.181253,45.482186,Bar Barbara,cafe
9.179697,45.482276,Little Lamb,restaurant
9.181748,45.482625,Caffetteria Baiamonti,cafe
9.179504,45.481607,Jubin,restaurant
9.180109,45.481819,Unknown name,cafe
9.179734,45.481968,oTTo,cafe
9.180867,45.482753,Ha Long Bay,restaurant
9.18124,45.481924,Chateau Dufan,cafe
9.180336,45.481578,Dong Ya,restaurant
9.179375,45.481737,Jolly Bar,cafe
9.174743,45.468493,Café Nord 2000,cafe
9.20344,45.463441,Unknown name,bar
9.197178,45.467077,Caffè delle Colonne,cafe
9.174196,45.462274,Primus Bistrot,restaurant
9.189275,45.468072,Caffe' Verdi,restaurant
9.172811,45.462706,Simon's,restaurant
9.183522,45.479594,Helà,ice cream
9.184537,45.479147,Pink Bar,cafe
9.183121,45.48047,Shanji,restaurant
9.184383,45.479042,Sumire,restaurant
9.183619,45.479804,Gialle,restaurant
9.181984,45.482374,Wakaba,restaurant
9.183413,45.47973,Zodiaco,cafe
9.183033,45.480271,Al Solito Posto,cafe
9.182923,45.482062,Nook,restaurant
9.184581,45.478809,Lievità Pizzeria gourmet,restaurant
9.18341,45.481938,Himalaya,restaurant
9.183499,45.481922,Le Petit Prince,fast food
9.182169,45.482282,Mekan,fast food
9.183473,45.480015,Melabevo,bar
9.182365,45.482212,Mun,restaurant
9.188364,45.4771,Domm,cafe
9.187939,45.477185,Ted One,cafe
9.188967,45.477868,Bab,restaurant
9.189087,45.478179,Bebel's,restaurant
9.188017,45.477435,Il Barettino,cafe
9.188931,45.483781,Venchi,ice cream
9.187996,45.477928,Y-Not,restaurant
9.188532,45.477507,Drogheria San Marco,restaurant
9.188045,45.477503,Ristorante Pizzeria Da Cecco,restaurant
9.188708,45.478012,40 take away,restaurant
9.188066,45.477579,Rangoli,restaurant
9.203232,45.477509,Il Carpaccio,restaurant
9.177272,45.480521,Bar Mondino 1994,cafe
9.176395,45.468733,Binario 11,cafe
9.178091,45.480381,Ginza,cafe
9.173066,45.468154,Bar Virgilio,cafe
9.183758,45.475401,Pino,restaurant
9.181281,45.480312,My Kimchi,restaurant
9.177467,45.481446,Unknown name,cafe
9.174242,45.468242,Miscusi,restaurant
9.184964,45.46727,Taberna San Tomaso,restaurant
9.179464,45.480863,Trattoria Cinese,restaurant
9.175392,45.467947,Venchi,ice cream
9.181239,45.480076,Xin Fu-Ji,restaurant
9.181337,45.480633,Unknown name,restaurant
9.202643,45.479106,Pavé,cafe
9.197834,45.482126,Hashimi sushi,restaurant
9.197478,45.481793,Trattoria La Fattoria,restaurant
9.197611,45.482136,Kafana,cafe
9.197693,45.482323,Trattoria Il Paiolo,restaurant
9.20679,45.467557,cafe Victum,cafe
9.182826,45.470268,Sella Cafè,cafe
9.183029,45.472081,Cafè Rivoli,cafe
9.182988,45.472238,Dolce e Amaro,cafe
9.182591,45.471273,Senzatempo Bistrot,restaurant
9.197132,45.480584,Al Galileo,restaurant
9.185442,45.477654,Gambarotta,restaurant
9.185391,45.478847,Movidas,bar
9.184883,45.477902,Bar Capriccio,cafe
9.185686,45.478689,Yspanico,restaurant
9.185936,45.477561,Caffetteria della Moscova,cafe
9.185515,45.478493,Cimmino 104,bar
9.185458,45.478417,Ice Bound,ice cream
9.185406,45.478352,Our Gin,cafe
9.185702,45.477417,Ice Live,ice cream
9.185289,45.47768,Unknown name,restaurant
9.184848,45.477773,Panarello,cafe
9.186804,45.480159,Perimetro,restaurant
9.197826,45.462763,Unknown name,bar
9.193627,45.469093,Unknown name,cafe
9.192387,45.47012,Caruso Fuori,restaurant
9.196709,45.46749,Paper Moon,restaurant
9.196458,45.467846,Ristorante Bagutta,restaurant
9.204017,45.476771,Red Cafè,bar
9.180669,45.465881,Pizzeria Meucci,restaurant
9.204344,45.475563,New Delhi,restaurant
9.202676,45.47603,Flower Burger,fast food
9.192616,45.457932,Bar Meda,cafe
9.191193,45.460143,Bar Velasca,cafe
9.19252,45.45799,Gelateria Porta Romana,ice cream
9.192843,45.457595,Glamour,bar
9.193553,45.457597,Hekfanchai,fast food
9.190371,45.460341,Jubin,restaurant
9.190296,45.459316,Love It,restaurant
9.19075,45.460354,Ice & Coffee,cafe
9.19324,45.4572,Seon,restaurant
9.193544,45.457403,Il Gelato Matto,ice cream
9.191605,45.460684,Peter Bar,cafe
9.191433,45.459828,Pane e Farina,restaurant
9.191978,45.458325,Sakura,restaurant
9.194102,45.457311,Unknown name,cafe
9.193091,45.45791,Rossi e Rossi,cafe
9.192688,45.457879,Ten To Ten,restaurant
9.195211,45.45616,Viva,restaurant
9.192248,45.458533,Shalimar,restaurant
9.19548,45.455715,Unknown name,cafe
9.19299,45.456809,Nettare dei Santi,cafe
9.193381,45.4824,Bésame Mucho,restaurant
9.192866,45.482011,Thai Gallery,restaurant
9.187693,45.450292,B-Bar,restaurant
9.203358,45.476657,Usman,restaurant
9.193344,45.477638,Peter Bar,bar
9.192235,45.47771,Unknown name,bar
9.192145,45.477358,Unknown name,bar
9.197258,45.475605,Unknown name,bar
9.205732,45.476381,Asmara,restaurant
9.168741,45.453723,Caffè del binari,cafe
9.16906,45.453953,Tortona 12,bar
9.189139,45.483927,Alice,restaurant
9.201896,45.477148,Bar 4 sedie,cafe
9.202003,45.477101,Bjork,restaurant
9.202159,45.477234,Habesha Bar e Ristorante,restaurant
9.202025,45.477281,Martha Bar Restaurant,restaurant
9.202258,45.477197,Mantra Vegan Raw,restaurant
9.202116,45.477048,Dhaba,restaurant
9.202955,45.476851,Caffetteria Norma,cafe
9.202529,45.476442,Ristorante Ai Giardini - Paprika & Cannella,restaurant
9.203965,45.476382,Mono Bar,cafe
9.173415,45.476506,Burger Wave Arco della Pace,fast food
9.189077,45.463024,Casa Lodi,restaurant
9.193316,45.462744,Il Priscio,restaurant
9.193481,45.462977,Bar delle Ore,cafe
9.190438,45.462502,Bagalà,cafe
9.193285,45.463862,Bar Duomo,cafe
9.189462,45.463205,Borghi,ice cream
9.191032,45.462185,Peccati di Gola,cafe
9.190857,45.461926,Bar Sole,cafe
9.190446,45.462198,Ca'puccino,cafe
9.189151,45.462641,Caffè Napoli,cafe
9.189122,45.463604,Coppola,cafe
9.188958,45.463228,Dogana,restaurant
9.190749,45.461852,La Caveja,fast food
9.195396,45.461996,Pizza Pazza,restaurant
9.188631,45.46323,Spontini,restaurant
9.193169,45.462745,a'Mare,restaurant
9.184301,45.470424,Momus,restaurant
9.186529,45.482714,11rooftop,bar
9.19508,45.473807,Bar Turati,cafe
9.195205,45.476294,Biancolatte,restaurant
9.195753,45.476872,Ca' Turati,restaurant
9.195427,45.473711,Desinolento,restaurant
9.195489,45.476988,Il Baretto,cafe
9.195588,45.473281,Parco Sushi,restaurant
9.196099,45.473166,Unknown name,cafe
9.195635,45.476759,Panino Giusto,restaurant
9.195647,45.473364,Sushi Etc,restaurant
9.193949,45.474888,Subway,fast food
9.194561,45.474538,Unknown name,restaurant
9.194668,45.474063,Farina e Pomodoro,restaurant
9.194617,45.474339,Krem,ice cream
9.194049,45.475015,NUI City Jungle Cafè,restaurant
9.17759,45.452162,A' Vucciria,fast food
9.191686,45.464893,Maio Restaurant,restaurant
9.178243,45.458969,Gelato Oasi,ice cream
9.189057,45.4636,Streetoast,fast food
9.180687,45.456458,Trattoria Toscana,restaurant
9.166823,45.45497,Trattoria Aurora,restaurant
9.206534,45.475326,Kashmir,restaurant
9.193143,45.466085,Farina & Cucina,restaurant
9.191817,45.465944,Antica Pizza Fritta di Zia Esterina,restaurant
9.204525,45.467889,Golden Cafè,cafe
9.203467,45.471981,Bar Salvini,cafe
9.203535,45.471716,Caffè Duse,cafe
9.204136,45.469405,Caffè Rossini,cafe
9.203878,45.469966,Caffè di via Vivaio,cafe
9.201673,45.474378,Bar Bianco,bar
9.188313,45.465548,Granaio,restaurant
9.18843,45.46527,Panini Durini,fast food
9.184449,45.470914,Sibilla,restaurant
9.206914,45.459722,PreTesto,restaurant
9.185827,45.462084,Piz,restaurant
9.182962,45.479905,Serendib,restaurant
9.190271,45.475338,Il Verdi,restaurant
9.185553,45.471576,Tiramisu Delishoes Milano,restaurant
9.175023,45.451642,Empanadas Argentinas,restaurant
9.191657,45.466026,Al Cantinone,restaurant
9.187272,45.46479,Ristorante Al Mercante,restaurant
9.191111,45.465844,Meat Grill Food,restaurant
9.196907,45.458625,Unknown name,bar
9.164814,45.466535,Gelateria della Musica,ice cream
9.190303,45.483179,Illy,cafe
9.188712,45.483184,Replay - The Stage Fine Dining,restaurant
9.193677,45.471149,Bistrot Manzoni,restaurant
9.191208,45.469953,Caffè 19,cafe
9.190784,45.468448,Caffè Mozart,cafe
9.193053,45.470852,Nobu,restaurant
9.193484,45.472599,La Tavernetta da Elio,restaurant
9.176345,45.468853,Caffè La Rocchetta,cafe
9.185514,45.48139,Ciao Pizza,fast food
9.185769,45.481324,Osteria del Gambero Rosso,restaurant
9.185503,45.481159,Morsi e Rimorsi,restaurant
9.186435,45.481179,Herry's Bar,bar
9.184753,45.481593,Gam,restaurant
9.177724,45.451511,Sphera Locura,bar
9.177719,45.451659,Istanbul Turkish kebab,fast food
9.177689,45.451911,Ego,bar
9.177688,45.452008,Luna Rossa,restaurant
9.178154,45.458863,Pizzeria Naturale,restaurant
9.187901,45.462933,Rosticceria Fontana,fast food
9.175298,45.452758,Sabbia d'oro,restaurant
9.187411,45.481734,Gusto e Tradizione,fast food
9.188868,45.483301,Panini Durini,fast food
9.181489,45.460814,Sisto 3,bar
9.173367,45.451297,Mag Cafè,bar
9.194184,45.471235,Sweet Coffee Bar,cafe
9.195056,45.471982,Fresco & Cimmino,restaurant
9.205813,45.474801,12Oz,cafe
9.163885,45.467701,La Tavernetta,restaurant
9.181811,45.469045,Bar Castello,bar
9.178264,45.45194,Frank Pummarola,restaurant
9.178029,45.451782,Il Barcone,restaurant
9.180841,45.457311,Port'Noy Cafe,cafe
9.183922,45.460913,Café Saint George,cafe
9.180299,45.468778,Al Politico,fast food
9.187351,45.472839,El Beverin,restaurant
9.179391,45.481599,Bar 99,cafe
9.186263,45.472147,Il Kaimano,restaurant
9.178961,45.47781,Ristorante L'essenziale,restaurant
9.180888,45.465413,L'Isola della Piadina,fast food
9.201904,45.477117,Joia,restaurant
9.189359,45.465386,Bar Chèri,cafe
9.188355,45.46742,Bar della Scala,cafe
9.188898,45.466314,Caffè Scala,cafe
9.189173,45.465078,Da Regina,restaurant
9.189821,45.465978,Ristorante Galleria,restaurant
9.189848,45.465348,Cracco in Galleria,restaurant
9.189125,45.467048,Trussardi alla Scala,restaurant
9.188662,45.465377,Venchi,ice cream
9.172191,45.476479,Arcogelato,ice cream
9.17585,45.45182,Beynac,bar
9.18964,45.455376,Mimmo Four Seasons,restaurant
9.184211,45.450706,Fonderie Milanesi,bar
9.184151,45.450953,TPR,bar
9.1844,45.449907,Unknown name,bar
9.188939,45.483859,Italian Bakery,restaurant
9.18271,45.468932,Caffè Olimpia,cafe
9.18886,45.483807,Musubi,restaurant
9.169751,45.456107,Ristorante Scilla,restaurant
9.165476,45.470122,Pitti Caffè,cafe
9.170861,45.47656,Cream Lounge,bar
9.200147,45.45511,La Bettola Di Piero,restaurant
9.198801,45.464208,Trattoria da Pino,restaurant
9.191619,45.468888,Don Lisander,restaurant
9.171965,45.468631,Smooshi,restaurant
9.187748,45.461616,Sushi Li,restaurant
9.189372,45.461592,Yuan,restaurant
9.192147,45.464923,My Sushi - Rinascente,restaurant
9.192585,45.465618,Valentino Legend,restaurant
9.191718,45.469226,Biffino,bar
9.197889,45.465553,McDonald's,fast food
9.172746,45.451514,Luca & Andrea,bar
9.185853,45.472001,Amorino,ice cream
9.198864,45.466389,Brek,restaurant
9.200083,45.466821,Valentino Vintage,restaurant
9.168608,45.471065,L'Ov Milano,fast food
9.183874,45.472932,Al Teatro,cafe
9.179053,45.470524,Calicantus,cafe
9.183733,45.472475,Grand'Italia,restaurant
9.183712,45.472573,Le Cotolette,restaurant
9.183262,45.471808,L'angolo di casa,restaurant
9.18394,45.472682,The Fisherman,restaurant
9.183872,45.473141,Quore Italiano,restaurant
9.18363,45.472905,La Filetteria Italiana,restaurant
9.183953,45.472622,Baobab,fast food
9.183802,45.472112,Rovello 18,restaurant
9.18168,45.476488,Art Cafe,cafe
9.181889,45.474751,Magnaki Arena,restaurant
9.206612,45.47443,Ca'puccino,cafe
9.184823,45.452372,Cafè Clubino,bar
9.202295,45.479441,Sax,restaurant
9.199698,45.480736,Nhero,restaurant
9.199784,45.480394,Parioli,restaurant
9.199846,45.48003,Milionaire lounge bar,bar
9.200211,45.478083,Churchill Caffè,cafe
9.182541,45.474432,Sushi,restaurant
9.183021,45.474264,Enoteca,restaurant
9.182709,45.474442,Tigella's,restaurant
9.185972,45.467127,Luna Rossa,cafe
9.168056,45.479625,Ristorante Montecristo,restaurant
9.17108,45.480315,Armando Bistot,cafe
9.170553,45.480899,MU,fast food
9.181463,45.478534,Ai Bastioni,restaurant
9.184866,45.475304,Ham holy burger,fast food
9.185066,45.475265,Pizzeria Nazionale,restaurant
9.184509,45.475492,Le tre regioni,fast food
9.184081,45.475546,Trattoria c'era una volta,restaurant
9.184413,45.475504,Milano Kebap house,fast food
9.18676,45.475026,Rigolo,restaurant
9.185763,45.475186,Grand'Italia,restaurant
9.187192,45.47525,Trevesbar,cafe
9.175067,45.463873,Parenthesy,cafe
9.173491,45.465045,Orti di Leonardo,restaurant
9.175206,45.467534,Panini Durini,fast food
9.182715,45.467258,Locatelli,restaurant
9.194267,45.464825,I Panini della Befi,cafe
9.192946,45.470497,Bamboobar,bar
9.174137,45.472226,Terrazza Triennale - Osteria con vista,restaurant
9.198032,45.463247,L' Arabesque,cafe
9.187366,45.472691,Brera 29,restaurant
9.186869,45.472727,Mò Puglia Bistrot,cafe
9.185903,45.467304,Al Dente,restaurant
9.186934,45.467732,Piazzetta Bossi,restaurant
9.186792,45.467662,Trulli Love,restaurant
9.173116,45.467352,Dosso 18,cafe
9.172577,45.467595,Acero Rosso,restaurant
9.17233,45.467591,Natural Break,restaurant
9.172942,45.468258,Ghe Sem,restaurant
9.182679,45.463122,Ristorante Borromeo 5,restaurant
9.178846,45.452239,Mont Real Cafè,cafe
9.18255,45.452039,Fatto-Bene,restaurant
9.179792,45.450159,Cafè Millennium,cafe
9.179825,45.450499,Amsterdam Chips,fast food
9.192414,45.469131,Corsia del Giardino,restaurant
9.193603,45.472474,La Tavernetta da Elio,restaurant
9.195922,45.471492,be&at's,restaurant
9.1836,45.474048,Tamandi Foccacia,fast food
9.179116,45.459549,Viva,restaurant
9.160801,45.460927,Unknown name,cafe
9.162524,45.461601,Unknown name,cafe
9.194581,45.474565,Unknown name,cafe
9.177675,45.466037,Gelato fatto con amore,ice cream
9.188104,45.455568,Osteria della Lanterna,restaurant
9.184294,45.456813,Tom the ordinary market,bar
9.191829,45.464902,Il bar Milano,bar
9.207113,45.460886,KOKO,bar
9.190619,45.450826,Joy Bistrot & Cafe,cafe
9.181007,45.459392,Streetoast,fast food
9.18143,45.459944,La Gelateria della Musica,ice cream
9.173369,45.481253,McDonald's,fast food
9.176141,45.48148,Cantine Isola,cafe
9.181039,45.459621,Hamerica's,fast food
9.201559,45.455117,Pizzeria San Francesco 2,fast food
9.168524,45.471244,White Bear,cafe
9.168085,45.47194,Fatto Bene Burger,fast food
9.168094,45.472366,Bar Impero,cafe
9.187992,45.473449,n'ombra de vin,bar
9.168549,45.457832,C'era una volta una piada,restaurant
9.178029,45.464921,Niro Meet Bar,bar
9.165199,45.462977,Ristorante Argentino San Telmo,restaurant
9.200835,45.462757,L'Ostel,restaurant
9.19969,45.463305,Il Chicco Ricco,cafe
9.19965,45.463304,Ba-Ba Reeba,restaurant
9.200042,45.462986,Caffè Il Moro,cafe
9.201165,45.462953,Bar al Chiossetto,cafe
9.201294,45.467144,Mon Cafè,cafe
9.202172,45.466932,La Caveja,fast food
9.204771,45.465682,Bar Conservatorio,cafe
9.202024,45.467078,Milano Family Cafè,cafe
9.201039,45.466995,Miyabi,restaurant
9.184353,45.471347,Pandenus,fast food
9.179676,45.465627,De Santis,fast food
9.17783,45.466045,Boccascena Cafè,cafe
9.163693,45.457197,Bar Debby,bar
9.172692,45.467597,Puccia's Brothers,cafe
9.170307,45.467518,Bar Il Cenacolo,cafe
9.170467,45.46567,Le Grazie,cafe
9.173715,45.467309,L'Alter Bar,cafe
9.17176,45.468787,Shed Bar,cafe
9.172214,45.468797,Pizzeria Biagio,restaurant
9.171323,45.469068,Caffè Monti,cafe
9.171905,45.469083,Viveca,restaurant
9.17077,45.46952,Mamma Oliva,restaurant
9.171529,45.454611,Seoul,restaurant
9.195233,45.461986,Unknown name,restaurant
9.180183,45.458837,Ciaccia coi ciccioli,fast food
9.183224,45.48086,Macha,cafe
9.184226,45.478112,Caffé Napoli,cafe
9.206808,45.473808,Sheraton Diana Majestic,bar
9.185501,45.470136,Mesotelioma x Chiara Ferragni,cafe
9.197794,45.465423,Pascucci,cafe
9.193311,45.469344,Panino Chic,fast food
9.194497,45.472426,Off the Poke,fast food
9.183294,45.474674,Temakinho,restaurant
9.192315,45.461365,California Bakery,restaurant
9.173316,45.452906,Tongs,bar
9.203769,45.476202,Special - Hamburger & Italian Fast Food,fast food
9.16761,45.455178,Gusto 17,ice cream
9.188013,45.462857,Unknown name,cafe
9.199239,45.457107,Trattoria la vecchia guardia,restaurant
9.184517,45.467332,Andry,restaurant
9.174473,45.452814,Le Striatelle,restaurant
9.176015,45.451852,Greek fusion,restaurant
9.185316,45.452034,Mi-Ramen Bistro,restaurant
9.175572,45.459949,Ambroisa organic,restaurant
9.192744,45.462282,Jade Garden,restaurant
9.188641,45.476698,Burger Wave,fast food
9.187698,45.474594,Ristorante Santa Virginia,restaurant
9.188637,45.476854,Pacifico,restaurant
9.188614,45.476049,Latteria San Marco,restaurant
9.188628,45.475393,El Tombon de San Marc,restaurant
9.189029,45.475189,Satokina,restaurant
9.188368,45.474657,Caffè Ponte Nuovo,cafe
9.189671,45.476653,Mot Bistrot,restaurant
9.189498,45.476704,Volemose Bene,restaurant
9.188867,45.476813,El Tabachée,restaurant
9.189437,45.475882,Yazawa,restaurant
9.188398,45.474736,Gelateria Rigoletto,ice cream
9.190335,45.475186,Bar Mirabello,cafe
9.192662,45.480628,Amami,restaurant
9.192095,45.480469,Unknown name,cafe
9.194687,45.47983,Le Vrai,restaurant
9.19249,45.480483,Soulgreen,restaurant
9.192032,45.46494,Obica Duomo,restaurant
9.208578,45.466689,Ristorante Omega 3,restaurant
9.183268,45.456726,Mani Bistrot,restaurant
9.178404,45.468003,Caffè Napoli,cafe
9.179748,45.465618,Bistro,restaurant
9.179361,45.46581,Parco Sushi,restaurant
9.177178,45.466211,"Tutto bene, grazie",restaurant
9.179265,45.46582,Il Magentino,cafe
9.176994,45.465942,La piadineria,fast food
9.207449,45.461398,Al Pizzetta,fast food
9.185222,45.477691,Portami,fast food
9.173807,45.451396,Temakinho,restaurant
9.194357,45.451062,Spoon,restaurant
9.195663,45.464877,Gino Sorbillo,restaurant
9.178487,45.464053,Caffè Santa Valeria,cafe
9.180365,45.464059,Bar El Canton,cafe
9.1786,45.463906,Arnold Coffee,cafe
9.179685,45.460695,Caffè Le Tre Vie,cafe
9.176799,45.460243,Barcollando,bar
9.177118,45.460272,Just Cafè,cafe
9.176551,45.460737,Piadineria Giulia,fast food
9.177395,45.460484,Bar Al Due,cafe
9.176547,45.460535,Bar Matricola,cafe
9.175726,45.460914,Time Cafè,cafe
9.176407,45.460774,Crumb,cafe
9.186748,45.480061,Prime One Seven Burger Har,restaurant
9.194555,45.454895,Unknown name,bar
9.165488,45.459514,Caffè del Sole,bar
9.166483,45.455758,Marulli Cafè,bar
9.179383,45.451834,Unknown name,bar
9.187986,45.482555,Bar Meraviglia,cafe
9.184602,45.481346,Babitonga Cafè,bar
9.182519,45.460772,Spontini,restaurant
9.189873,45.466413,I 12 Gatti,restaurant
9.173492,45.452346,Ral8022,bar
9.174387,45.453017,Kyto,restaurant
9.180421,45.454922,Kazan,restaurant
9.179525,45.458833,La Crota - Trattoria con pizza,restaurant
9.20655,45.470826,riad food garden,cafe
9.188324,45.478919,dry milano,cafe
9.189216,45.475308,fish bar de Milan,bar
9.186642,45.451433,Happy Cafè,bar
9.201757,45.467967,Caffetteria Villa Necchi Campiglio,cafe
9.186194,45.461115,We Coffee,cafe
9.187987,45.459864,Basara Milano,restaurant
9.184509,45.45921,Sarla,restaurant
9.183933,45.459625,Bistrot Santa Maria Valle,restaurant
9.183843,45.460605,Unknown name,cafe
9.184489,45.461052,Pizzeria Grill,restaurant
9.185229,45.460708,Rossini,restaurant
9.188883,45.459848,Piadineria Artigianale,fast food
9.206709,45.46877,Nottingham Forest,bar
9.180076,45.459697,Pasta d'Autore,restaurant
9.186148,45.466708,Bellavista,restaurant
9.183445,45.467139,Signorvino,restaurant
9.188629,45.463038,Caffè Carlino,cafe
9.195049,45.466021,Krem,cafe
9.183454,45.462615,B Cafè,fast food
9.185682,45.480861,Domino Pizza,fast food
9.17614,45.466098,Guido Gobino,cafe
9.184364,45.46325,Caffè del Bollo,cafe
9.184388,45.462637,Cervìn,restaurant
9.183575,45.462561,La Caveja,fast food
9.183768,45.463257,Ristorante De Bini,restaurant
9.183631,45.46236,Bar Santa Marta,cafe
9.183213,45.461895,La Fettunta,restaurant
9.181989,45.464155,Ristorante Hostaria Borromei,restaurant
9.182949,45.464204,Viky Bar,cafe
9.181834,45.464734,Il Gusto del Caffè,cafe
9.181718,45.462896,Caffè Sant'Orsola,cafe
9.17932,45.464377,Da Zero,restaurant
9.180302,45.46526,Ristorante La Brisa,restaurant
9.178173,45.465254,La Fontanella,cafe
9.178236,45.465525,Unknown name,cafe
9.176649,45.452299,Rinomata Gelateria,ice cream
9.205341,45.463189,Miscusi,restaurant
9.202548,45.477984,KOSHITSU,restaurant
9.202451,45.478126,Lon Fon,restaurant
9.187385,45.463158,Granaio,restaurant
9.181378,45.457374,Rossopomodoro,restaurant
9.205184,45.475746,Rotani Caffe,cafe
9.185341,45.478795,Tasta,ice cream
9.170177,45.477104,Sempione,fast food
9.192411,45.467692,Boeucc,restaurant
9.180488,45.478203,Bar Biancamano,cafe
9.199183,45.454875,Lacerba,bar
9.196303,45.451731,Champagne e Spumanti,cafe
9.184647,45.465317,Baccanale,restaurant
9.186938,45.465215,CityFarm,bar
9.190993,45.466109,Lavazza,cafe
9.193453,45.465514,Panino Giusto,restaurant
9.18474,45.470194,Convivium,restaurant
9.176766,45.453164,Vista Darsena,bar
9.175359,45.465197,Boccondivino,restaurant
9.193085,45.464515,Ke Piada Bistrot,fast food
9.185858,45.471741,Cinc Food & Drinks,bar
9.16746,45.455233,Savona 18 petit cafè,cafe
9.167315,45.455189,Da Luigi,restaurant
9.167783,45.455234,Burgez,fast food
9.167044,45.455113,Creanza,restaurant
9.179978,45.478006,Caffè del Vecchio Stadio,cafe
9.176776,45.478089,La Siesta,cafe
9.176202,45.478299,Casa del Caffè,cafe
9.175054,45.457274,Zen Express Ryukishin,fast food
9.206219,45.474652,I Love Poke,fast food
9.178179,45.465209,Garage 5,fast food
9.181098,45.465755,Cucca,restaurant
9.203714,45.476168,Matilde Milano Restaurant,restaurant
9.194426,45.468549,Illy Caffè,cafe
9.169005,45.467909,Tommasi,bar
9.172448,45.481928,Wang Jiao,restaurant
9.184431,45.470965,Lo's,restaurant
9.184325,45.471399,Panini Durini,fast food
9.18259,45.467494,United Tastes of Hamerica's,restaurant
9.193804,45.475901,Moko's Matcha,cafe
9.18765,45.46433,KFC,fast food
9.196654,45.461174,Bar Sforza,cafe
9.182492,45.467627,Caveau,restaurant
9.184318,45.467351,La Felicità,restaurant
9.185057,45.465901,Caffetteria Dante,cafe
9.181731,45.467095,Da Puccini,restaurant
9.180704,45.465925,Burla giò,restaurant
9.183292,45.46786,Clichè Cafè,cafe
9.1702,45.456265,Ofelé,cafe
9.167176,45.454343,Ristorante Ciro Pomodorino,restaurant
9.166676,45.455439,Trattoria all'Antica,restaurant
9.166405,45.455853,Panino Lab,fast food
9.172291,45.462917,Q.B.,ice cream
9.166256,45.46634,L'Uccellina,restaurant
9.169191,45.465763,Leonardo Bistrot,cafe
9.168694,45.465565,Gelateria San Carlo,ice cream
9.173112,45.463936,Bar Anny,cafe
9.184956,45.477752,Paninidurini,cafe
9.184776,45.461696,Ronchi 78,restaurant
9.204886,45.476785,Ristorante Africa,restaurant
9.175936,45.481309,La Ravioleria Sarpi,fast food
9.171915,45.480838,Recreo Bar Sartoria,bar
9.171661,45.480443,Pizzeria da Mimmo,restaurant
9.174623,45.481359,Trattoria Chinese Long Chang,restaurant
9.171088,45.481076,Pizzeria da Giuliano,restaurant
9.187086,45.474901,18 Solferino,cafe
9.183573,45.474218,Flower Burger,fast food
9.173729,45.460532,Posta,restaurant
9.172734,45.46104,Daniel e il Caffè,cafe
9.173258,45.4615,Caffè De Amicis,cafe
9.173408,45.452633,28 posti,restaurant
9.187933,45.459729,Wicky’s,restaurant
9.187408,45.466252,Tandem Bistrot,restaurant
9.18569,45.466095,Rosebymary,restaurant
9.190654,45.465175,Gino Sorbillo,restaurant
9.183313,45.466504,Bravo,cafe
9.185848,45.466109,Italy Restaurant,restaurant
9.185801,45.466103,Gusto Milano,restaurant
9.196277,45.462897,La sardina innamorata,restaurant
9.196028,45.46287,Braci e risotti di Massarè,restaurant
9.172897,45.459152,Unknown name,cafe
9.171884,45.458146,Unknown name,cafe
9.170996,45.459017,Nelson Pub,restaurant
9.181265,45.460378,Pane e Vino,restaurant
9.18093,45.456841,Pizzeria del ticinese,restaurant
9.199166,45.462737,Macha,cafe
9.170528,45.459452,So Natural,cafe
9.171374,45.460219,Gran Cafè Olona,cafe
9.169547,45.460436,Caffè Portioli,cafe
9.168387,45.4593,Garden Cafè,cafe
9.177588,45.458452,Pasticceria Cucchi,bar
9.19867,45.456475,Nobilis Cafè,cafe
9.175862,45.465396,Hamericas,fast food
9.176612,45.465929,Caffè Napoli,cafe
9.176803,45.465947,Osteria Al 29,restaurant
9.184843,45.471506,La Tartina,restaurant
9.184543,45.471505,Tailor & Coffee,cafe
9.185474,45.472002,Montmartre Cafe,cafe
9.184865,45.465661,Bar Rubin,cafe
9.186152,45.463106,Slow Sud,restaurant
9.166031,45.460138,Shamo,restaurant
9.167334,45.459959,Ristorante Le Capannelle,restaurant
9.170843,45.480706,cirispaccio,restaurant
9.194757,45.481688,Casa Gourmet,restaurant
9.193175,45.481895,Caffè Napoli Exytus,cafe
9.17132,45.454508,142 Restaurant,restaurant
9.173091,45.454595,Caffetteria della Darsena,cafe
9.170192,45.452739,Derby Bar,cafe
9.170226,45.452554,Dom Station,bar
9.17316,45.453111,Da Teresa e Patrizia,restaurant
9.171416,45.453037,Il Cavaliere,fast food
9.171787,45.453012,Cigar Cafè,cafe
9.171743,45.453217,Casa del Ramen,restaurant
9.180905,45.460279,Felice a Testaccio,restaurant
9.170164,45.476708,Pizzeria Starita,restaurant
9.167118,45.455133,Papagayo,restaurant
9.170625,45.477391,Bomaki,bar
9.189588,45.453121,Now,cafe
9.190333,45.464999,La Terrazza Aperol,bar
9.184136,45.471848,Bar Cinque Stelle,cafe
9.176183,45.467756,Bar Tabacchi Cadorna,cafe
9.189718,45.467776,Le Spighe Cafè,cafe
9.188215,45.46899,Risotto Express,restaurant
9.189843,45.461875,Jollibee,fast food
9.17532,45.456908,Bottega del vino La coloniale,bar
9.179618,45.477581,La bottega del vino,bar
9.164657,45.467435,Il malto e l’uva,bar
9.181278,45.458903,Coffee&Shop Amadeus,bar
9.193512,45.469215,Chic & Go Milano,restaurant
9.198551,45.463177,Chez Panin,restaurant
9.191756,45.464912,La Rinascente Food and Restaurant,restaurant
9.180724,45.45654,Betto Dolceria Rosticceria Siciliana,cafe
9.176227,45.452221,II Panzerotto di Ettore,cafe
9.207772,45.462615,Gelateria Tosa 1848,ice cream
9.189687,45.472856,Borgonuovo 26,restaurant
9.189679,45.472715,Cafè Monet,cafe
9.188705,45.47253,Bioesserì,restaurant
9.17054,45.4768,Kitsch Bar,bar
9.170792,45.476515,Mammina,restaurant
9.170663,45.476432,La Posteria,restaurant
9.17128,45.475873,Parco Milano,bar
9.185244,45.461605,Bro'z Milano,cafe
9.186434,45.450798,Ristorante Pizzeria San Giovanni,restaurant
9.200224,45.462099,New Boston,cafe
9.199088,45.462138,Caffè Vittoria 14,cafe
9.198864,45.462138,Crostone,fast food
9.199132,45.457713,Nuovo Bar Antenore,cafe
9.199521,45.457773,Vizi e Sfizi,cafe
9.199347,45.457749,Unknown name,cafe
9.200141,45.461357,Breakbianco,restaurant
9.199247,45.457032,La Casa del Gelato,ice cream
9.199685,45.457783,Regina Caffè,cafe
9.199164,45.457542,Unknown name,cafe
9.199298,45.456761,Pavè Milano,restaurant
9.199953,45.456676,La Dolce Vita,cafe
9.19951,45.456748,Unknown name,cafe
9.188851,45.483786,Macha,cafe
9.202159,45.456722,Glu Free,cafe
9.191972,45.464837,juicebar,bar
9.189745,45.462856,Iginio Massari,cafe
9.166227,45.465913,Gourmand il panino d'autore,fast food
9.197008,45.461659,AEM,cafe
9.172203,45.45795,Il Mosto Selvatico,restaurant
9.189325,45.465075,Pulia,restaurant
9.184917,45.466611,Caffè Letterario,cafe
9.180887,45.464101,DaDa in Taverna,restaurant
9.181017,45.464183,Organic,restaurant
9.17757,45.459152,Wave,bar
9.176567,45.458409,Hygge,cafe
9.172924,45.457777,Punto Caffè,cafe
9.184427,45.462674,Pasto - Laboratorio di pasta con cucina,restaurant
9.204197,45.477065,One way della Speranza,restaurant
9.173302,45.483045,Il Santo Bevitore,restaurant
9.184668,45.475468,White Cafè,cafe
9.186456,45.475826,Tangram Cafè,cafe
9.184881,45.477218,Thun Caffè,cafe
9.179309,45.451776,REcicli Bikes & Café,bar
9.186381,45.480108,Orianna,restaurant
9.195724,45.479568,Radio Rooftop Bar,bar
9.193,45.464456,Signorvino Via Dante,bar
9.175516,45.452038,Frankly Bubble Tea & Coffee,cafe
9.173923,45.459387,S. Ambrogio,fast food
9.195642,45.454274,Quadronno,bar
9.171844,45.460272,Shanti,restaurant
9.187236,45.474316,Doriani,restaurant
9.187167,45.474592,Gelateria Solferino,ice cream
9.173446,45.453082,Roast-Eat,fast food
9.195045,45.47389,Ice Cup Café,ice cream
9.168789,45.453844,Flower Burger,fast food
9.187122,45.481855,Trieste Pizza,restaurant
9.187612,45.474004,Stendhal,restaurant
9.187671,45.474346,Fruteiro,restaurant
9.185548,45.461953,Pomet,restaurant
9.199794,45.480844,Caffè Napoli,cafe
9.19996,45.48102,Giannino,restaurant
9.205174,45.4762,Rainbow cafè,cafe
9.191899,45.465901,Ristorante Pizzeria del Drago,restaurant
9.192509,45.450843,il fortino,bar
9.192036,45.450841,Kama,restaurant
9.192262,45.450843,IL cozzaro,restaurant
9.192777,45.451048,Unknown name,cafe
9.193051,45.450843,Amygdala Cafė,bar
9.193249,45.450833,The Social Chupiteria,bar
9.192215,45.450843,BurgerBar,fast food
9.19384,45.451052,Oishii,restaurant
9.193485,45.451049,Oca giuliva,restaurant
9.192703,45.450843,turkish kebap,fast food
9.182187,45.465182,Maui,restaurant
9.18066,45.460456,Fabregas,restaurant
9.180605,45.460487,Bar Sotto Torchio,cafe
9.179964,45.459657,Unknown name,cafe
9.178215,45.459229,Unknown name,cafe
9.183916,45.463527,La Piadineria,fast food
9.179518,45.459679,Sensei,restaurant
9.185498,45.477455,Mondial Kebap,fast food
9.195427,45.469455,La Veranda,restaurant
9.194396,45.462123,Caffetteria S.Stefano,cafe
9.192123,45.459484,The grill,restaurant
9.194024,45.460679,C'era una volta,cafe
9.194374,45.461439,Gusto,fast food
9.193871,45.460674,Leccentrico,cafe
9.19411,45.460789,Grecales' ub,cafe
9.193793,45.460571,Ateneo Café,cafe
9.192162,45.459097,Favelinha,fast food
9.175523,45.478246,Ali Baba Pizzeria,fast food
9.171346,45.480211,Vasavasa,fast food
9.170497,45.48061,Gelatera 54,fast food
9.175496,45.478369,Bar Felice,bar
9.204858,45.477142,Memà,cafe
9.17557,45.468508,Acafe,cafe
9.175624,45.468542,Burger King,fast food
9.175817,45.468345,Cioccolatitaliani,cafe
9.206381,45.45908,Astoria,restaurant
9.206484,45.459205,Angus and more,restaurant
9.174136,45.451458,Il Vero ok,fast food
9.172949,45.451198,Unknown name,fast food
9.205246,45.476626,El Paso de los Toros,restaurant
9.204481,45.476966,Bar Addis Abeba,cafe
9.203928,45.477369,Ristorante Awash,restaurant
9.202794,45.477914,Trattoria Wang Jing,restaurant
9.202533,45.477833,La Locanda Dell'amore,restaurant
9.187269,45.463324,Caffe Vergnano,restaurant
9.188803,45.462629,Ecooking,restaurant
9.200452,45.47704,New Caffè Italiano,cafe
9.201319,45.477222,Willy's Sandwich,fast food
9.202103,45.45693,La Marmora,restaurant
9.199479,45.456759,Unknown name,restaurant
9.193623,45.457274,‘O Macarò,restaurant
9.204312,45.477356,Ferrari,restaurant
9.200919,45.47231,Il Caffettino,cafe
9.183919,45.475766,Officina gelato,ice cream
9.165014,45.470669,Cafè Pagano,cafe
9.204139,45.476919,LeccoMilano,bar
9.190532,45.468088,Panini Durini,fast food
9.173485,45.451321,BackDoor43,bar
9.188863,45.462853,ecooking,restaurant
9.162619,45.467693,Aumm Aumma,restaurant
9.160959,45.467964,Metropolis,cafe
9.162426,45.467823,La Maniera di Carlo,restaurant
9.16431,45.467876,Rufus Bar,bar
9.16397,45.468004,Tai,cafe
9.173659,45.450914,Momento,restaurant
9.186196,45.464929,Starbucks,cafe
9.172774,45.453136,Tenoha,restaurant
9.176697,45.459564,Nordic Grill,restaurant
9.178498,45.458609,Premiata Pizzeria,restaurant
9.200024,45.472546,LùBar,restaurant
9.17179,45.477583,Hola,restaurant
9.172691,45.477096,Dumbo Burger,fast food
9.172659,45.476966,Rebetiko,restaurant
9.173115,45.477718,Tara,restaurant
9.174359,45.477124,Margot,restaurant
9.17279,45.477662,Ten to Ten,restaurant
9.172693,45.477402,Gusto 17,ice cream
9.173297,45.476428,Pisco,restaurant
9.178229,45.452748,Social Market Fish & Chips,restaurant
9.180174,45.453194,Vineria,restaurant
9.180193,45.453274,Ckn & Chk,fast food
9.196514,45.455791,Alta Turkish Kebap,restaurant
9.196391,45.455664,Hello Chicken,fast food
9.187391,45.465034,Mercanti,restaurant
9.186911,45.465228,Caffe Martini,bar
9.184664,45.466228,Puro Gusto,cafe
9.167626,45.479977,La Bufala,restaurant
9.166858,45.480542,Mullerdi Cavit,cafe
9.171132,45.476352,MIT Cafe,cafe
9.167992,45.479889,Salad Me Cafe,cafe
9.170148,45.477748,La Taverna dei Golosi,restaurant
9.170121,45.477146,Ama.mi,restaurant
9.170409,45.476889,Milano 1979,restaurant
9.17651,45.468285,Yours Bubble Tea - Ravioli & Bubble Tea,cafe
9.180954,45.458656,Alle Colonne,restaurant
9.181427,45.460021,Panino Giusto,restaurant
9.181019,45.459144,San Miguel,cafe
9.18136,45.45957,Donna Sophia,restaurant
9.182361,45.460743,California Bakery,restaurant
9.181279,45.458944,Wok on the Go,restaurant
9.190126,45.457621,Sant Eufemia,bar
9.190254,45.468511,Identità golose,restaurant
9.187778,45.481859,10 corso como,restaurant
9.166034,45.459516,Top Pan Wok,restaurant
9.196947,45.46282,Caffe Napoli,cafe
9.181684,45.482748,La puccieria,cafe
9.190842,45.458796,L’isola del Tesoro,restaurant
9.194647,45.465571,Quore Italiano,restaurant
9.194081,45.465652,Square Food,cafe
9.187656,45.480992,Dispensa Emilia,fast food
9.188398,45.463393,Il panzerotto del senatore,fast food
9.177736,45.481444,Tang Gourmet,restaurant
9.176355,45.48131,A'Vucciria,fast food
9.177084,45.481557,Unknown name,cafe
9.174853,45.481382,Ling Dian Bar,cafe
9.177296,45.480285,Unknown name,restaurant
9.174796,45.479588,Osteria Vecio Frjul,restaurant
9.174839,45.479328,Trattoria Hong Ni,restaurant
9.175108,45.478969,Rosso Fuoco,restaurant
9.175156,45.479983,Bar Il Liceo,cafe
9.17684,45.478749,Caffè Popolare,cafe
9.177092,45.466716,All'Officina,cafe
9.181896,45.46002,Green Day Natural Food and Bar,fast food
9.171066,45.454053,Euro Jolly,bar
9.186588,45.459969,Yokohama,restaurant
9.171401,45.476085,Duomo dal 1952,cafe
9.205254,45.475593,40 Pizza e Cucina,restaurant
9.186816,45.48021,Starbucks,cafe
9.199333,45.464281,Taverna Visconti,restaurant
9.20452,45.47789,Delicatessen,restaurant
9.175702,45.48167,Bar Messina,cafe
9.175834,45.481812,Gelsomino,restaurant
9.17585,45.482277,Al Vecchio Porco,restaurant
9.177009,45.482471,Unknown name,cafe
9.180304,45.459779,Pan Caffè Correnti,cafe
9.175584,45.452732,Testone,fast food
9.198416,45.45957,Bar San Barnaba,cafe
9.183677,45.473759,Pokeria,fast food
9.205545,45.461525,Unknown name,cafe
9.203614,45.462048,Unknown name,cafe
9.20359,45.461235,Na Gott,restaurant
9.203643,45.461145,Unknown name,cafe
9.203104,45.461974,Unknown name,cafe
9.202485,45.461615,Bar Vittoria,cafe
9.202536,45.46131,La Toga,restaurant
9.202538,45.461256,La Legge dei Sapori,cafe
9.202769,45.4601,Unknown name,cafe
9.164826,45.466602,Larky restaurant caffe Milano,restaurant
9.189931,45.463363,Veg-MI Trike,fast food
9.189351,45.479785,Carlsberg Øl,restaurant
9.172527,45.481189,Fusho,restaurant
9.188714,45.451162,Napulegna,restaurant
9.184419,45.451913,Wang Jiao,restaurant
9.17444,45.451184,Iter,bar
9.17065,45.465677,Shion,restaurant
9.173886,45.467525,Zakuro,restaurant
9.186345,45.463711,Al Mercante,restaurant
9.208575,45.465377,Da Giacomo,restaurant
9.186404,45.451548,Gelateria Artigianale Biologica Km0,ice cream
9.174966,45.452201,Morgante cocktail & soul,bar
9.181293,45.48199,Sbunda,fast food
9.168934,45.481309,Madera Milano,cafe
9.169081,45.481884,Murales,restaurant
9.168483,45.481314,Da Giulia,restaurant
9.180999,45.453366,Sant’Eustorgio,restaurant
9.172324,45.481178,Uva Garden,restaurant
9.181225,45.452128,La romana,ice cream
9.171323,45.482797,Le Colline Toscana,restaurant
9.199934,45.454935,Gli Orti del Belvedere,restaurant
9.199698,45.455054,Gennaro Esposito,restaurant
9.18794,45.477898,Cafezal,cafe
9.190449,45.468614,DeRos,restaurant
9.204076,45.476316,Sui Generis,cafe
9.183756,45.472257,RED Bistrot Libreria,restaurant
9.191101,45.462127,Yuan Chinese Hot Pot,restaurant
9.190867,45.461688,Smartkook,bar
9.203375,45.47608,Subito Dai,restaurant
9.170455,45.453912,Unknown name,cafe
9.180953,45.458612,Tutti Fritti,bar
9.185095,45.477318,In Veranda,restaurant
9.18735,45.462294,Caputo,restaurant
9.194924,45.476001,Foodie's,cafe
9.193624,45.475935,Pasticceria Ranieri,cafe
9.193852,45.477246,Il Giò,bar
9.194806,45.473347,La Piadineria,fast food
9.200918,45.462748,Pavé Milano,ice cream
9.188122,45.462593,Bello Tosto,fast food
9.187073,45.462491,Stoica Bar,cafe
9.187059,45.462355,La Piadineria,fast food
9.186595,45.461823,L'Altro Tramezzino,fast food
9.187015,45.461814,Maga Cacao,cafe
9.188073,45.4616,Lo Sfizio in Galleria,fast food
9.187821,45.461549,Bar Milano,cafe
9.18836,45.461688,Tastè,cafe
9.188363,45.462369,Hana,restaurant
9.189484,45.462431,Panino Giusto,restaurant
9.196109,45.453341,Fratelli Torcinelli,fast food
9.195815,45.461518,Colibrì,bar
9.182939,45.452042,Ovino,restaurant
9.171316,45.480232,Bellaviva,cafe
9.187488,45.46074,Unknown name,cafe
9.192371,45.482981,Pandenus,cafe
9.183577,45.474616,Osteria dei Poeti,restaurant
9.205025,45.476311,PoP,bar
9.183819,45.479193,Case Mia,restaurant
9.172885,45.481093,Corey's Soul Chicken,fast food
9.204574,45.462613,Ristorante Shorai,restaurant
9.207027,45.47059,God Save The Food,restaurant
9.182945,45.466543,Basement,restaurant
9.187762,45.451716,Panzarotti,restaurant
9.193019,45.477672,Green Day,restaurant
9.174387,45.481343,Ristorante Yuebinlou,restaurant
9.189358,45.483953,12Oz,cafe
9.189237,45.483953,Mama Burger,fast food
9.175443,45.482268,Ricky Bar,cafe
9.175207,45.483759,Unknown name,cafe
9.172938,45.482164,Biofficina,restaurant
9.17649,45.45804,Fiume d'argento,restaurant
9.160352,45.46051,Gelateria Paradise,ice cream
9.165491,45.465792,Plaza cafè,cafe
9.180508,45.457844,Todos a Cuba,bar
9.180073,45.450272,Unknown name,fast food
9.177503,45.45214,Unknown name,ice cream
9.177402,45.452115,Unknown name,fast food
9.169054,45.456891,Pizza OK5,fast food
9.170337,45.456354,Unknown name,ice cream
9.170979,45.456404,Unknown name,fast food
9.171214,45.456118,Pasticceria Clivati,cafe
9.173686,45.454196,Unknown name,fast food
9.173747,45.454151,Okja,fast food
9.173963,45.45404,Wafu,restaurant
9.190595,45.460557,Peter bar,cafe
9.190454,45.460443,Unknown name,cafe
9.178832,45.459231,Unknown name,fast food
9.178686,45.459154,Unknown name,fast food
9.178556,45.459099,Oliva,fast food
9.164303,45.463827,La Bottarga,restaurant
9.16385,45.463378,Bar Cosmo,cafe
9.185904,45.479134,Agua Sancta,bar
9.185696,45.477595,Canapè,restaurant
9.173672,45.451375,Crepes,bar
9.206154,45.474676,Quore Italiano,restaurant
9.170093,45.45821,Martesana,cafe
9.205052,45.475179,Royal Cafe,cafe
9.192631,45.462437,Jade Café,cafe
9.202573,45.455504,Ristorante Pizzeria Aurora,restaurant
9.164672,45.455679,Alice Pizza,fast food
9.173589,45.451753,UGO,bar
9.174672,45.463936,Madamadorè Street Food Bar,bar
9.169183,45.455866,Unknown name,cafe
9.195334,45.461191,Ristoservice,cafe
9.159897,45.465966,Hana,restaurant
9.163215,45.464834,Bianca,restaurant
9.164805,45.465483,Acqua Pazza,restaurant
9.164416,45.465257,Franci's Bar,cafe
9.173739,45.479101,Savana,restaurant
9.167464,45.456583,Amunì,restaurant
9.165262,45.456172,Dolcedipendenza,ice cream
9.168059,45.456778,Mr. Tea Bar,bar
9.165586,45.456347,Filly,bar
9.168779,45.457731,Coolmorning,bar
9.166473,45.456206,Key Bar,bar
9.168308,45.457298,Mood Cafè,cafe
9.185561,45.478538,PanB Milano,restaurant
9.193295,45.462369,Bar dell'Università,cafe
9.167385,45.456565,Asian Flavor,restaurant
9.16514,45.456136,Solopizza Cafè,restaurant
9.177296,45.457683,Big Store de Milàn,bar
9.171955,45.460374,Pizzeria Olona,restaurant
9.173755,45.467276,Al bacio,restaurant
9.194191,45.461738,Un’altra Pasta,restaurant
9.19275,45.461656,Yi Pin Ramen,restaurant
9.179359,45.477542,El Porteño Arena,restaurant
9.184993,45.452701,El Porteño Darsena,restaurant
9.172829,45.462508,Bebel,restaurant
9.203195,45.475903,Unknown name,bar
9.169381,45.46676,Unknown name,cafe
9.181946,45.451094,Mido,restaurant
9.183074,45.466595,Camperio Lounge Bar,cafe
9.208479,45.467677,Gong,restaurant
9.206241,45.473501,Neta,restaurant
9.16546,45.45592,Art Cafe,cafe
9.207023,45.465562,Trattoria Griglia,restaurant
9.172908,45.462669,Ichiro,restaurant
9.171728,45.462845,Caffè Ambrosiano,cafe
9.191246,45.461406,La Cantina del Mangia,restaurant
9.188993,45.461626,Ristorante Da Bruno,restaurant
9.189076,45.460883,Atelier Cafe,cafe
9.189782,45.461105,Bowls,bar
9.17276,45.462708,Marco's,bar
9.169235,45.45736,Girarrosti Santa Rita,fast food
9.169451,45.456965,Sevilla mia,restaurant
9.169187,45.457394,Sweet Cafè,bar
9.191011,45.46092,Green Koala,cafe
9.175485,45.465003,Nico,restaurant
9.175471,45.464508,Sant'Ambrogio Cafè,cafe
9.188611,45.476428,Sush Art,restaurant
9.177724,45.451461,Sciuè Navigli,restaurant
9.169139,45.455845,Latteria & Co,fast food
9.199196,45.457244,Il Forno di Via Commenda,cafe
9.168672,45.480669,Capuano's,restaurant
9.188245,45.478543,N'ata Espressioni di pizza,restaurant
9.176597,45.455939,Daniele,restaurant
9.181834,45.459362,Miscusi,restaurant
9.18313,45.480154,Sapori della Pasta,restaurant
9.207044,45.471934,This is Pasta,restaurant
9.196494,45.455576,Trafilata,restaurant
9.189564,45.463197,Unknown name,ice cream
9.177281,45.466154,Gelato Fatto Con Amore,ice cream
9.172109,45.480731,Crema Gelateria Artigianale,ice cream
9.163372,45.457095,Unknown name,cafe
9.187141,45.472765,Boa Boa,restaurant
9.195025,45.469509,La Corte di Montenapoleone,cafe
9.188806,45.463015,Orto Urbano,cafe
9.166608,45.475992,Unknown name,cafe
9.184321,45.456453,Toasteria Italiana,fast food
9.195399,45.464518,SunEleven Rooftop,bar
9.174261,45.472616,Caffè in giardino,cafe
9.177718,45.4517,il negozietto del gelato,ice cream
9.189703,45.464876,Terrazza Duomo 21,bar
9.182661,45.467357,Neo Kisho,restaurant
9.181502,45.48313,Mi Dimsum,restaurant
9.170454,45.456216,Rosticceria Cinese Kai Fa,fast food
9.170504,45.453635,Scaletta,restaurant
9.172017,45.482331,Ramen a Mano,restaurant
9.198588,45.454891,Osteria Dot,fast food
9.1713,45.481092,Frère,bar
9.187257,45.481225,Burgez,fast food
9.181016,45.459104,Burgez,fast food
9.187052,45.451643,Burgez,fast food
9.18255,45.452244,Ichi station,restaurant
9.181737,45.452313,Sushi Kòboo,restaurant
9.165105,45.467366,Bebel,cafe
9.182072,45.452285,Bodeguita del Medio,bar
9.188406,45.463436,Pokescuse,fast food
9.208575,45.463463,La Risacca 6,restaurant
9.207035,45.465458,Kashima,restaurant
9.173461,45.481126,Tai Wan Bubble Tea,cafe
9.175912,45.466587,Oro Nero,cafe
9.186404,45.461322,all'Antico Vinaio,fast food
9.186606,45.4617,Pizza Bio,restaurant
9.196355,45.452196,California Bakery,restaurant
9.16999,45.476799,Slice Milano,restaurant
9.167196,45.46378,Bistro Aimo e Nadia,restaurant
9.176143,45.458243,Bentoteca,restaurant
9.202595,45.457014,All'Origine,restaurant
9.203676,45.457442,Unknown name,cafe
9.196312,45.460995,Hanabi,restaurant
9.19537,45.461756,La Bottega di Via Laghetto,restaurant
9.195591,45.461604,Il Panino,fast food
9.19547,45.46141,Cantina Piemontese,restaurant
9.193319,45.462938,Vero Sapore Greco,restaurant
9.184812,45.47187,IT,restaurant
9.169013,45.465742,Galli Pizza & More,restaurant
9.172494,45.467809,Nosh,ice cream
9.17431,45.465828,PaninoLAB,fast food
9.18485,45.477868,Orecchiette `A Porter,fast food
9.188805,45.483448,That's Vapore,restaurant
9.208264,45.464556,Miss Peach,cafe
9.208622,45.464629,Cellini,restaurant
9.207631,45.464094,L’Ov,restaurant
9.207661,45.463705,Sandy Bar,cafe
9.208344,45.46342,Spoon,restaurant
9.208158,45.463389,Classico,restaurant
9.19961,45.453863,Ichimi,restaurant
9.180724,45.456564,Linzi,ice cream
9.206487,45.467235,Dal Baggini,restaurant
9.171748,45.48002,Takumi Ramen Kitchen,restaurant
9.182654,45.474354,Nero9,restaurant
9.183616,45.473957,La fabbrica del grano,fast food
9.207455,45.461036,Gelateria Alberto Marchetti,ice cream
9.176682,45.468386,Il chiosco di Lory,fast food
9.177052,45.466319,PokéSamba,fast food
9.182092,45.460488,Aivoglia,fast food
9.203368,45.464129,Babila Bistro,bar
9.178786,45.452741,Marcelleria Popollare,restaurant
9.187375,45.472712,Artico,ice cream
9.196978,45.482356,Tripburger,restaurant
9.190232,45.463525,Giacomo Arengario,restaurant
9.205299,45.476731,Jerusalem,fast food
9.205196,45.476778,Isola verde,fast food
9.204596,45.476915,La Luna piena,restaurant
9.188262,45.472839,Clotilde Brera,restaurant
9.182986,45.452208,Macha,cafe
9.177444,45.451375,Osteria Milanese Ossbus,restaurant
9.176503,45.450886,Mieru Mieru,restaurant
9.190437,45.467284,Gusto 17,ice cream
9.198568,45.48068,L’antica Pizzeria da Michele,restaurant
9.185179,45.460799,Tiello,fast food
9.18189,45.45147,Levino,restaurant
9.173569,45.467417,California Bakery,restaurant
9.177715,45.451742,Maoji mini,fast food
9.193085,45.466185,Antica Focacceria San Francesco,restaurant
9.166424,45.467478,Bar Peter Pan,bar
9.174115,45.453039,Berberè,restaurant
9.171103,45.453254,Al Bacio,restaurant
9.170662,45.453288,Il Panino Ignorante Gourmet,fast food
9.170692,45.453089,Woodstock 3,restaurant
9.171029,45.453063,Deus Cafe,cafe
9.171623,45.453024,Pollerie Milanesi,fast food
9.1721,45.452993,Duomi,restaurant
9.172314,45.45298,Pizzium,restaurant
9.173829,45.452866,El Chupasangre,bar
9.174059,45.452853,Mugen,restaurant
9.174718,45.452804,Gente di mare,restaurant
9.174964,45.452786,Famoso Fusion,restaurant
9.175802,45.45272,Osteria della Darsena,restaurant
9.17588,45.452718,Caffè Napoli,cafe
9.170202,45.452469,Fratelli Ravioli,restaurant
9.166693,45.454958,Macha Cafè,restaurant
9.168306,45.455403,Messere,restaurant
9.168201,45.455375,Mr Bulldog,fast food
9.168077,45.455335,Madre,restaurant
9.167868,45.455264,Maido,restaurant
9.202579,45.478796,Fan Wu,restaurant
9.195517,45.472212,Camillo Benso,restaurant
9.166926,45.454671,Castelli Gourmet,restaurant
9.188061,45.461704,Rabbit hole,cafe
9.173421,45.454396,Bischeri,restaurant
9.182336,45.479912,Serendib,restaurant
9.185466,45.461982,Contrada Govinda,restaurant
9.186702,45.466156,Desco,restaurant
9.175186,45.4788,House of Ronin,restaurant
9.177771,45.449938,Sushi San,restaurant
9.1778,45.450076,Romeo la Pinseria der Colosseo,restaurant
9.177858,45.450217,Ai Balestrari,restaurant
9.185405,45.471914,Osteria Da Fortunata,restaurant
9.203062,45.476792,Kilburn,bar
9.207775,45.473635,Gesto,bar
9.183371,45.474338,La Prosciutteria,restaurant
9.184277,45.476314,Osaka,restaurant
9.17433,45.453034,Poormanger,restaurant
9.207673,45.470586,Giolina,restaurant
9.187356,45.484871,Culto Caffè,cafe
9.194272,45.451052,Flower Poke,fast food
9.192527,45.46689,That's vapore,restaurant
9.184208,45.46658,Five Guys,fast food
9.182323,45.46053,Find tea,cafe
9.171011,45.480938,KFC,fast food
9.176197,45.466089,Pinsando,fast food
9.206516,45.470939,Zaini Milano,cafe
9.206318,45.472719,Macha,cafe
9.18364,45.475927,Bomaki,restaurant
9.195386,45.456463,Crocetta,cafe
9.183626,45.475575,Osteria del Corso,restaurant
9.183417,45.47544,Prima,bar
9.183167,45.476788,Degustazione,restaurant
9.188052,45.482619,Quore,restaurant
9.196935,45.467784,Paper Moon Giardino,restaurant
9.180909,45.45673,Cannoleria gourmet,fast food
9.180833,45.45633,Mama StrEAT,fast food
9.173991,45.456726,Sakeya,restaurant
9.206024,45.474716,La filetteria italiana,restaurant
9.17497,45.457421,Paca's,restaurant
